City ID,City,Temp,Humidity,Cloudiness,Wind Speed,Latitude,Longitude
0,Bluff,45.0,84,79,3.0,-46.6,168.33
1,Arlit,88.5,42,75,14.61,18.74,7.39
2,Ushuaia,35.6,94,40,26.4,-54.8,-68.3
3,Dikson,43.16,83,96,16.75,73.51,80.55
4,Marawi,73.0,93,76,5.01,8.0,124.29
5,Barrow,39.2,86,90,26.4,71.29,-156.79
6,Dutse,77.41,76,79,10.16,11.76,9.34
7,Lebu,48.65,76,0,14.36,-37.62,-73.65
8,Vuktyl,54.16,72,46,2.3,63.86,57.31
9,Pierre,90.37,33,1,11.41,44.37,-100.35
10,Punta Arenas,41.0,56,30,18.34,-53.15,-70.92
11,Ostrovnoy,53.53,92,27,6.26,68.05,39.51
12,Punto Fijo,86.77,65,0,21.43,11.7,-70.2
13,New Norfolk,38.41,92,100,3.02,-42.78,147.06
14,Sampit,71.67,97,82,2.68,-2.53,112.95
15,George Town,78.06,94,40,12.17,5.41,100.34
16,Bethel,87.76,55,75,9.17,41.37,-73.41
17,Ribeira Grande,75.2,88,40,4.7,38.52,-28.7
18,Busselton,45.9,99,99,5.14,-33.65,115.33
19,Ahipara,55.92,78,99,9.6,-35.17,173.17
20,Upernavik,43.54,81,85,9.44,72.79,-56.15
21,Fortuna,66.36,72,20,13.87,40.6,-124.16
22,Comodoro Rivadavia,50.0,64,0,8.05,-45.87,-67.5
23,Souillac,69.8,83,40,6.93,-20.52,57.52
24,Leningradskiy,40.98,70,81,4.72,69.38,178.42
25,Bandarbeyla,78.89,79,0,25.59,9.49,50.81
26,Saldanha,50.0,76,0,3.36,-33.01,17.94
27,Lorengau,82.04,72,37,5.41,-2.02,147.27
28,Ereymentau,57.96,66,45,4.07,51.62,73.1
29,Tegul'det,53.08,91,6,3.96,57.31,88.17
30,Howard Springs,60.69,27,27,6.93,-12.5,131.05
31,Rikitea,72.34,78,96,17.54,-23.12,-134.97
32,Mathathane,52.83,68,0,6.02,-22.27,28.75
33,Khatanga,51.71,68,0,4.36,71.97,102.5
34,Jizan,84.2,79,40,9.46,17.33,42.67
35,Cape Town,53.94,76,0,8.05,-33.93,18.42
36,Umeå,60.89,93,52,3.36,63.83,20.26
37,Elizabeth City,93.63,47,1,9.17,36.29,-76.25
38,Kassala,81.12,66,97,12.75,15.45,36.4
39,Pisco,63.79,72,40,8.05,-13.7,-76.22
40,Rio Verde de Mato Grosso,83.7,31,93,4.59,-18.92,-54.84
41,Ofakim,73.99,58,0,1.36,31.31,34.62
42,Kapaa,80.26,74,90,16.11,22.08,-159.32
43,São Paulo de Olivença,81.99,82,24,4.07,-3.38,-68.87
44,Mataura,45.0,84,52,3.0,-46.19,168.86
45,São Filipe,77.74,82,82,7.81,14.9,-24.5
46,Mar del Plata,46.45,75,75,8.05,-38.0,-57.56
47,Lompoc,65.86,68,7,13.87,34.64,-120.46
48,Kincardine,54.75,71,75,13.87,56.07,-3.72
49,Provideniya,48.2,70,90,8.95,64.38,-173.3
50,Brae,55.4,100,100,11.41,60.4,-1.35
51,Erzurum Province,64.4,52,75,14.99,40.0,41.5
52,Bakel,87.19,62,78,15.32,14.9,-12.46
53,Coro,86.34,64,6,18.37,11.4,-69.67
54,Adrar,97.41,10,4,2.91,20.5,-10.07
55,Kavaratti,81.59,79,98,18.07,10.57,72.64
56,Korla,84.0,47,63,5.01,41.76,86.15
57,Lages,51.76,95,99,4.21,-27.82,-50.33
58,Puerto Colombia,87.8,70,40,12.75,10.99,-74.95
59,Hilo,79.84,54,40,8.05,19.73,-155.09
60,Albany,84.33,43,100,8.59,42.6,-73.97
61,Eureka,64.47,82,1,8.05,40.8,-124.16
62,Laguna,91.42,35,3,3.0,38.42,-121.42
63,Kysyl-Syr,49.53,68,100,8.63,63.9,122.76
64,San Buenaventura,82.89,55,100,8.01,27.08,-101.53
65,Mahébourg,69.8,83,40,6.93,-20.41,57.7
66,Thompson,68.0,68,75,6.93,55.74,-97.86
67,Hermanus,48.0,94,3,4.43,-34.42,19.23
68,Berlevåg,53.33,100,75,19.46,70.86,29.09
69,Hithadhoo,82.56,76,94,11.18,-0.6,73.08
70,Puerto Quijarro,84.74,39,93,7.56,-17.78,-57.77
71,Erenhot,72.41,35,56,6.24,43.65,111.98
72,Bambous Virieux,68.94,83,40,6.93,-20.34,57.76
73,Micheweni,76.37,80,0,14.79,-4.97,39.83
74,Ahtopol,74.3,78,0,3.36,42.1,27.95
75,Waingapu,69.76,80,75,9.48,-9.66,120.26
76,Huilong,81.41,94,100,8.79,31.81,121.66
77,Saskylakh,48.29,63,48,3.91,71.92,114.08
78,Bredasdorp,51.8,81,0,3.36,-34.53,20.04
79,Kaitangata,48.99,63,57,4.0,-46.28,169.85
80,Puerto Ayora,71.31,69,20,20.8,-0.74,-90.35
81,Touros,78.8,65,20,9.17,-5.2,-35.46
82,Krutinka,48.43,86,27,8.61,56.01,71.51
83,Ketchikan,61.9,67,40,14.99,55.34,-131.65
84,Cayenne,86.0,70,20,10.29,4.93,-52.33
85,Arraial do Cabo,77.77,65,0,12.75,-22.97,-42.03
86,Castro,65.59,64,77,5.21,-24.79,-50.01
87,Indramayu,74.77,76,84,10.07,-6.33,108.32
88,Clyde River,48.2,81,20,10.29,70.47,-68.59
89,Asău,66.99,86,0,4.36,46.43,26.4
90,Viedma,48.99,53,0,1.99,-40.81,-63.0
91,Vao,72.36,79,75,27.29,-22.67,167.48
92,Salinópolis,80.96,79,58,13.31,-0.61,-47.36
93,Dingle,76.03,90,100,2.77,11.0,122.67
94,Callaway,78.26,88,75,12.75,30.15,-85.57
95,Chui,45.09,74,1,6.35,-33.7,-53.46
96,Marabu,78.4,94,40,1.12,4.41,114.01
97,Gaozhou,78.31,86,19,4.47,21.94,110.85
98,Nikolskoye,62.19,88,20,8.95,59.7,30.79
99,Bitung,75.2,94,40,12.73,1.45,125.18
100,Sakakah,102.2,13,20,6.93,29.97,40.21
101,Tiksi,41.27,82,94,7.87,71.69,128.87
102,Norman Wells,64.4,68,75,10.29,65.28,-126.83
103,Kovernino,60.93,75,7,3.02,57.13,43.81
104,San-Pédro,74.8,86,100,7.36,4.75,-6.64
105,Puerto Escondido,86.0,70,40,6.33,15.85,-97.07
106,Hobart,40.06,81,75,9.17,-42.88,147.33
107,Zahesi,71.6,83,73,8.05,41.82,44.75
108,Port Elizabeth,59.0,87,4,10.29,-33.92,25.57
109,Korāput,73.99,88,100,2.3,18.82,82.72
110,Jackson,94.77,26,1,4.27,42.42,-122.83
111,Ngunguru,57.99,3,100,7.0,-35.62,174.5
112,Margate,64.26,52,58,4.0,51.38,1.39
113,Catabola,56.53,37,0,2.51,-12.15,17.28
114,Klaksvík,46.4,93,100,27.51,62.23,-6.59
115,Qaanaaq,45.41,68,12,5.03,77.48,-69.36
116,Nanortalik,47.3,93,100,8.86,60.14,-45.24
117,Bilma,94.39,26,43,9.82,18.69,12.92
118,Beroroha,64.63,64,0,3.24,-21.67,45.17
119,Palmer,86.88,52,75,13.87,42.16,-72.33
120,Ambulu,69.08,86,42,4.07,-8.35,113.61
121,Vardø,51.8,100,90,16.11,70.37,31.11
122,Acaraú,79.63,71,1,17.13,-2.89,-40.12
123,Nome,50.0,93,90,18.34,64.5,-165.41
124,Impfondo,75.25,76,100,1.21,1.64,18.07
125,Narsaq,53.6,71,75,6.93,60.92,-46.05
126,Butaritari,79.32,88,100,11.48,3.07,172.79
127,Saint Paul Harbor,71.6,43,1,9.17,57.79,-152.41
128,Poum,74.61,78,85,34.74,-20.23,164.02
129,Iqaluit,69.8,49,20,10.29,63.75,-68.51
130,Airai,51.39,89,22,2.98,-8.93,125.41
131,Grand Gaube,68.0,83,20,4.0,-20.01,57.66
132,Presidencia Roque Sáenz Peña,55.78,40,0,4.63,-26.79,-60.44
133,Sawākin,92.44,50,100,11.48,19.11,37.33
134,Avarua,73.4,78,30,10.29,-21.21,-159.78
135,Axum,59.43,97,100,3.76,14.12,38.72
136,Bayjī,98.8,10,0,4.94,34.93,43.49
137,Sørland,64.4,68,11,6.93,67.67,12.69
138,Port Alfred,60.84,74,2,8.75,-33.59,26.89
139,Miyako,65.98,93,100,5.68,39.64,141.95
140,Timbiras,80.87,52,0,1.28,-4.26,-43.94
141,Severnyy,75.2,47,27,4.47,50.68,36.55
142,Along,72.59,89,100,2.1,28.17,94.77
143,Lüderitz,59.0,77,0,13.87,-26.65,15.16
144,Fomboni,75.63,82,27,15.9,-12.28,43.74
145,Kununurra,62.6,38,0,6.93,-15.77,128.73
146,Tarakan,79.07,85,100,7.7,3.3,117.63
147,Resistencia,56.77,30,0,9.17,-27.46,-58.98
148,Conde,77.0,73,20,10.29,-7.26,-34.91
149,Koumac,73.94,72,48,16.62,-20.57,164.28
150,Vitim,55.69,92,100,0.98,59.45,112.56
151,Atuona,80.01,71,4,25.21,-9.8,-139.03
152,Bagdarin,60.71,91,97,3.13,54.43,113.6
153,Flinders,51.42,85,81,1.01,-34.58,150.86
154,Sinazongwe,62.92,54,0,3.69,-17.26,27.46
155,Pecos,96.8,22,1,8.57,31.42,-103.49
156,Semīrom,61.59,30,29,3.2,31.42,51.57
157,Sigli,77.22,76,100,9.93,5.38,95.96
158,Lavrentiya,46.58,75,94,5.5,65.58,-171.0
159,Bereda,60.64,98,78,11.01,43.27,-7.54
160,Damāvand,91.15,16,40,6.93,35.72,52.06
161,Moratuwa,82.4,78,90,9.17,6.77,79.88
162,Cherskiy,47.28,55,9,11.34,68.75,161.3
163,Bengkulu,74.1,91,97,4.59,-3.8,102.27
164,Noumea,75.76,53,75,10.29,-22.28,166.46
165,Kitimat,68.0,62,37,3.0,54.05,-128.65
166,Tasiilaq,42.8,93,24,8.05,65.61,-37.64
167,Laas,62.49,87,40,3.36,46.62,10.7
168,Hamilton,86.67,45,40,9.17,39.18,-84.53
169,Torbay,61.84,72,75,10.29,47.67,-52.73
170,Kumul,73.45,40,1,10.74,42.8,93.45
171,Kruisfontein,55.99,89,26,8.12,-34.0,24.73
172,Vostok,63.16,99,0,3.06,46.49,135.88
173,Yellowknife,68.0,64,75,4.7,62.46,-114.35
174,Shestakovo,54.66,88,88,1.54,56.49,103.96
175,Carnarvon,60.8,82,0,13.87,-24.87,113.63
176,Batagay,47.39,67,88,6.46,67.63,134.63
177,Panabá,92.39,51,0,12.71,21.28,-88.27
178,Pangody,48.96,89,99,8.5,65.85,74.49
179,Tuktoyaktuk,46.4,93,90,13.87,69.45,-133.04
180,Severo-Kuril'sk,52.21,87,95,14.83,50.68,156.12
181,Opuwo,59.07,34,0,7.65,-18.06,13.84
182,La Foa,77.0,53,75,10.29,-21.71,165.83
183,Santa Isabel Rio Negro,82.92,79,94,3.27,-0.41,-65.02
184,Sabla,83.44,62,93,6.44,12.75,4.71
185,Nador,78.8,83,0,2.24,35.17,-2.93
186,Chelno-Vershiny,60.35,80,13,1.61,54.43,51.1
187,Skibbereen,57.2,67,20,10.29,51.55,-9.27
188,Longyearbyen,60.8,63,100,5.82,78.22,15.64
189,Mollendo,60.12,76,36,6.33,-17.02,-72.01
190,Chul'man,64.94,88,56,4.29,56.85,124.91
191,Rock Sound,82.85,76,0,11.23,24.9,-76.2
192,Contai,83.26,84,100,10.87,21.78,87.75
193,Krasnoarmiys'k,69.12,72,84,7.16,48.28,37.18
194,Srednekolymsk,50.94,58,94,5.91,67.45,153.68
195,Bentiu,70.16,93,87,4.56,9.23,29.83
196,Serpa,82.4,51,0,11.41,37.95,-7.6
197,Jamestown,78.55,50,20,12.75,42.1,-79.24
198,Nha Trang,82.4,83,20,5.82,12.25,109.18
199,Moctezuma,96.89,32,1,4.79,29.8,-109.67
200,Hailar,65.66,85,90,8.12,49.2,119.7
201,Itoman,82.27,88,20,8.05,26.12,127.67
202,La Ronge,82.4,48,20,12.75,55.1,-105.28
203,Naze,82.4,94,20,3.36,28.37,129.48
204,Daniel Flores,76.87,77,99,2.44,9.34,-83.67
205,Praia,82.4,74,75,10.29,14.92,-23.51
206,Forsytheganj,65.39,91,69,6.73,52.63,29.73
207,Salalah,80.6,94,75,6.93,17.02,54.09
208,Karratha,66.07,28,0,7.81,-20.74,116.85
209,Sabanagrande,87.8,70,40,12.75,10.79,-74.76
210,Vaini,68.0,82,75,19.46,-21.2,-175.2
211,Saint Anthony,82.29,51,75,6.93,45.02,-93.22
212,La Macarena,84.74,55,42,2.28,2.18,-73.78
213,Perth,55.62,87,40,5.82,-31.93,115.83
214,Paita,67.1,69,2,17.85,-5.09,-81.11
215,Alekseyevskaya,69.01,54,59,1.01,50.29,42.18
216,Bonthe,77.16,79,99,8.77,7.53,-12.51
217,Neyshabur,77.99,22,0,2.44,36.21,58.8
218,Erzin,82.0,87,0,1.45,36.96,36.2
219,Āsosa,61.97,93,100,4.07,10.07,34.53
220,Nuuk,44.6,100,90,2.24,64.18,-51.72
221,Basco,84.9,75,100,9.95,20.45,121.97
222,Bozhou,73.44,93,100,2.59,33.88,115.77
223,Jalu,79.52,57,0,15.61,29.03,21.55
224,Gizo Government Station,82.4,75,98,2.66,-8.1,156.84
225,Esperance,50.0,87,75,6.93,-33.87,121.9
226,Jumla,61.59,72,100,0.38,29.27,82.18
227,Cabo San Lucas,82.09,78,75,16.11,22.89,-109.91
228,Lebowakgomo,49.1,53,0,6.93,-24.2,29.5
229,Isangel,75.2,69,68,11.41,-19.55,169.27
230,Labuhan,73.76,81,30,8.57,-6.88,112.21
231,Cairns,57.2,39,0,3.36,-16.92,145.77
232,Nikolayevka,60.24,84,13,0.83,53.13,47.2
233,Goderich,77.99,77,0,12.82,43.75,-81.72
234,Uribia,93.96,43,6,14.2,11.71,-72.27
235,Saint George,101.61,14,1,5.82,37.1,-113.58
236,Mayo,91.54,49,20,8.05,38.89,-76.51
237,Olafsvik,50.29,78,45,5.21,64.89,-23.71
238,Sabha,83.64,20,0,9.24,27.04,14.43
239,Taku,75.2,94,0,4.47,39.02,117.65
240,Kanigoro,69.53,87,31,7.11,-8.13,112.22
241,Fortuna Foothills,112.21,9,1,5.82,32.66,-114.41
242,Chokurdakh,41.74,86,100,10.58,70.63,147.92
243,Troy,85.51,31,40,12.75,42.61,-83.15
244,Yulara,41.0,52,0,9.17,-25.24,130.99
245,Bilibino,51.4,57,99,2.91,68.05,166.44
246,Yōkaichiba,69.89,94,75,9.17,35.7,140.55
247,Shingū,75.4,95,100,3.4,33.73,135.98
248,Abnūb,82.4,39,0,10.29,27.27,31.15
249,Oranjemund,56.05,82,43,16.64,-28.55,16.43
250,Moose Jaw,84.2,35,40,13.87,50.4,-105.53
251,Hong Kong,83.03,79,60,4.0,22.29,114.16
252,Ossora,59.92,76,0,5.28,59.24,163.07
253,Hailun,67.96,87,0,6.93,47.45,126.93
254,Piteå,62.6,88,99,4.41,65.32,21.48
255,Bud,83.88,51,40,4.7,39.45,-86.18
256,Kaeo,57.99,3,100,7.0,-35.1,173.78
257,Ruzhyn,67.96,72,23,3.78,49.72,29.2
258,Baghdad,98.6,23,0,3.36,33.34,44.4
259,Departamento de Maldonado,46.49,62,0,10.0,-34.67,-54.92
260,Acapulco de Juárez,87.8,70,75,8.05,16.86,-99.89
261,Aklavik,55.4,93,90,9.17,68.22,-135.01
262,Kieta,80.19,74,100,3.78,-6.22,155.63
263,Dunedin,48.45,71,91,1.99,-45.87,170.5
264,Seybaplaya,93.2,52,40,20.8,19.65,-90.67
265,San Cristobal,91.4,49,40,13.87,7.77,-72.22
266,Nerchinskiy Zavod,62.19,93,34,2.93,51.31,119.61
267,Wenling,81.21,62,100,1.74,28.37,121.36
268,Bucerías,86.99,70,75,5.82,20.75,-105.33
269,Faya,70.7,64,20,5.14,18.39,42.45
270,Zhaozhou,68.92,86,28,5.95,45.68,125.32
271,Marigot,86.9,62,40,14.99,18.07,-63.08
272,San Patricio,89.6,75,40,11.41,19.22,-104.7
273,Pithora,79.48,87,100,3.15,21.27,82.52
274,Vetluzhskiy,59.18,88,0,2.62,58.39,45.47
275,Shaunavon,86.59,28,100,15.1,49.65,-108.42
276,Kikwit,79.41,31,0,1.07,-5.04,18.82
277,Kargopol',61.56,79,90,3.67,61.51,38.95
278,Basoko,72.23,92,100,1.74,1.24,23.62
279,Saint-Philippe,63.88,73,100,19.46,-21.36,55.77
280,Almeirim,84.52,55,83,1.92,-1.52,-52.58
281,Sheopur,89.89,58,100,1.92,25.67,76.7
282,Ojinaga,95.0,24,1,12.75,29.57,-104.42
283,Ust-Nera,53.74,65,97,6.15,64.57,143.2
284,Ruteng,55.06,92,65,1.95,-8.61,120.47
285,College,55.2,67,90,3.36,64.86,-147.8
286,Likhoslavl',63.21,96,100,6.06,57.13,35.46
287,Yangi Marg`ilon,80.6,42,48,4.7,40.43,71.72
288,Dhārchula,69.57,78,100,1.7,29.85,80.53
289,Puertollano,87.03,27,0,3.36,38.69,-4.11
290,Multai,76.01,85,100,6.93,21.77,78.25
291,Corridonia,78.33,57,0,2.82,43.25,13.51
292,Alice Springs,35.6,64,0,6.93,-23.7,133.88
293,Superior,81.3,37,40,16.11,46.72,-92.1
294,Arrondissement d'Ajaccio,77.0,69,0,4.7,42.0,8.92
295,Beruwala,78.91,85,100,12.15,6.48,79.98
296,Praia,82.4,74,75,10.29,14.92,-23.51
297,Namatanai,81.0,76,25,3.87,-3.67,152.43
298,Cururupu,78.37,79,53,4.27,-1.83,-44.87
299,Romans-sur-Isère,73.0,71,26,8.86,45.05,5.06
300,Yeppoon,50.0,71,0,4.7,-23.13,150.73
301,Kavieng,83.03,70,78,9.57,-2.57,150.8
302,Port Blair,82.8,79,95,18.14,11.67,92.75
303,Grindavik,50.0,100,90,9.17,63.84,-22.43
304,Rodolfo Sánchez Taboada,77.0,43,14,5.99,31.72,-116.57
305,Mobile,86.0,70,75,14.99,30.78,-88.2
306,Mehamn,57.2,87,34,1.12,71.04,27.85
307,Viekšniai,66.2,88,90,5.82,56.23,22.52
308,Alofi,73.4,69,40,9.17,-19.06,-169.92
309,Medvezh'yegorsk,62.78,77,100,5.08,62.92,34.47
310,Port Hardy,62.6,72,75,14.99,50.7,-127.42
311,Uvarovka,63.14,95,98,6.53,55.53,35.61
312,Itarema,79.29,72,0,16.91,-2.92,-39.92
313,Gravdal,64.4,68,20,6.93,68.12,13.5
314,Alexandria,80.6,74,0,9.17,31.22,29.96
315,Souris,80.8,47,20,8.05,49.62,-100.26
316,Zeya,68.67,86,0,2.95,53.75,127.27
317,Pimenta Bueno,90.0,33,69,2.39,-11.67,-61.19
318,Tuatapere,45.0,84,72,3.0,-46.13,167.68
319,Lata,65.05,93,0,1.01,40.16,-8.33
320,Rong Kwang,75.15,91,100,0.69,18.34,100.32
321,Meulaboh,74.14,87,100,4.43,4.14,96.13
322,East London,64.18,66,0,14.94,-33.02,27.91
323,Chapais,69.8,64,20,13.87,49.78,-74.85
324,Nizwá,87.62,51,0,2.86,22.93,57.53
325,Coyhaique,44.6,52,20,4.7,-45.58,-72.07
326,Udachny,48.2,81,90,2.24,66.42,112.4
327,Marzuq,76.93,56,0,5.28,14.4,46.47
328,Heihe,68.0,100,90,1.95,50.24,127.49
329,Pangnirtung,48.2,100,90,6.93,66.15,-65.71
330,Los Llanos de Aridane,70.72,73,75,16.11,28.66,-17.92
331,Muroto-misakicho,78.84,89,88,4.85,33.28,134.15
332,Gunjur,79.07,87,100,12.21,13.2,-16.73
333,Province of Mantua,81.46,69,0,3.0,45.17,10.78
334,Ponta do Sol,68.81,69,40,13.87,32.67,-17.1
335,Taltal,63.93,55,22,3.89,-25.4,-70.48
336,Kumbo,60.89,98,100,3.74,6.2,10.67
337,Cockburn Town,87.8,66,40,16.11,21.46,-71.14
338,Mattru,74.03,88,100,3.22,7.62,-11.83
339,Aksu,78.06,22,88,4.14,41.12,80.26
340,Riohacha,87.8,70,20,18.34,11.54,-72.91
341,Teloloapan,87.01,48,80,1.68,18.35,-99.85
342,Tayoltita,74.16,75,99,1.72,24.08,-105.93
343,Ugoofaaru,82.63,79,100,18.34,5.67,73.0
344,Mount Gambier,37.4,100,75,8.05,-37.83,140.77
345,Vohibinany,65.62,91,100,1.07,-17.35,49.03
346,Yushu,66.2,89,55,7.43,44.8,126.53
347,Henties Bay,55.99,92,0,1.01,-22.12,14.28
348,Hasaki,69.87,94,75,9.17,35.73,140.83
349,Bohodukhiv,82.4,28,26,13.42,50.16,35.53
350,Tautira,82.4,61,40,18.34,-17.73,-149.15
351,Shaowu,76.93,84,100,1.99,27.34,117.48
352,Sur,89.29,59,21,13.87,22.57,59.53
353,Lagoa,73.99,89,0,14.67,39.05,-27.98
354,Misratah,79.14,72,0,10.63,32.38,15.09
355,Middletown,84.92,45,20,6.93,39.52,-84.4
356,Oddur,73.76,77,49,18.66,4.12,43.89
357,San Quintín,73.76,64,7,16.28,30.48,-115.95
358,Paragominas,81.73,60,64,3.47,-2.97,-47.48
359,San Jerónimo,62.58,33,50,4.83,-11.95,-75.28
360,Tilichiki,57.83,71,0,5.17,60.47,166.1
361,San Miguel de Tucumán,60.8,21,0,9.17,-26.82,-65.22
362,General Roca,53.6,34,0,11.41,-39.03,-67.58
363,Pacifica,60.62,82,20,10.29,37.61,-122.49
364,Guerrero Negro,78.08,54,6,16.98,27.98,-114.06
365,Ancud,46.4,75,75,5.82,-41.87,-73.82
366,Hearst,62.74,86,100,7.31,49.68,-83.67
367,Sept-Îles,60.22,82,90,12.75,50.2,-66.38
368,Rio Grande,50.2,50,75,17.22,-32.03,-52.1
369,Wajima,74.05,91,100,9.19,37.4,136.9
370,Bahía Blanca,46.53,56,0,5.44,-38.72,-62.27
371,Nelson Bay,52.47,100,0,9.17,-32.72,152.15
372,Pevek,35.2,87,100,9.98,69.7,170.31
373,Codrington,40.73,92,1,8.01,-38.27,141.97
374,Iralaya,80.6,88,75,11.68,15.0,-83.23
375,Bestöbe,61.2,69,5,6.35,52.5,73.1
376,Berdigestyakh,53.98,76,100,1.3,62.1,126.7
377,Flin Flon,77.0,44,20,3.36,54.77,-101.86
378,Majene,75.7,86,63,12.73,-3.54,118.97
379,Chitral,76.35,27,0,5.03,35.85,71.79
380,Dores do Indaiá,71.38,50,12,5.37,-19.46,-45.6
381,Garmsār,84.76,21,6,7.56,35.22,52.34
382,Daur,91.4,59,8,9.17,26.46,68.32
383,Katherine,50.0,39,0,5.82,-14.47,132.27
384,Nizhniy Odes,53.58,66,3,4.23,63.64,54.86
385,Benjamín Aceval,57.2,54,75,16.11,-24.97,-57.57
386,Avera,89.62,55,1,14.99,33.19,-82.53
387,Umluj,86.5,77,42,5.66,25.02,37.27
388,La Mira,79.52,85,95,1.9,18.04,-102.33
389,Manzhouli,62.4,94,83,6.38,49.6,117.43
390,Lloydminster,82.4,54,20,13.87,53.28,-110.0
391,Dakar,77.0,100,90,6.93,14.69,-17.44
392,Petropavlovsk-Kamchatskiy,62.6,82,20,6.71,53.05,158.65
393,Neiafu,75.2,64,20,9.17,-18.65,-173.98
394,Buraidah,100.4,21,48,9.17,26.33,43.98
395,Aykhal,48.2,81,90,2.24,66.0,111.5
396,Mount Isa,51.8,43,0,8.05,-20.73,139.5
397,Fairbanks,55.17,76,90,6.64,64.84,-147.72
398,Ilulissat,46.4,70,75,9.17,69.22,-51.1
399,Syracuse,80.4,74,0,2.24,37.09,15.28
400,Lálas,74.84,78,0,3.62,37.72,21.72
401,Nemuro,59.74,86,99,7.0,43.32,145.57
402,Port Augusta,35.6,58,0,8.05,-32.5,137.77
403,Vila Franca do Campo,73.4,94,40,6.93,37.72,-25.43
404,Joshīmath,67.77,59,95,0.43,30.57,79.57
405,Agadez,91.47,16,10,6.96,19.75,10.25
406,Tāybād,79.38,19,0,13.22,34.74,60.78
407,Kenai,62.85,67,1,8.05,60.55,-151.26
408,Partizanskoye,52.83,89,0,1.5,55.5,94.39
409,Kawalu,68.23,89,97,0.72,-7.38,108.21
410,Dukat,52.92,90,100,5.37,62.55,155.55
411,Calama,71.6,2,0,14.99,-22.47,-68.93
412,Tuy Hoa,77.32,88,99,8.23,13.08,109.3
413,Byron Bay,51.26,81,15,6.93,-28.65,153.62
414,Faanui,79.12,77,100,21.0,-16.48,-151.75
415,Altamira,89.6,40,20,4.7,-3.2,-52.21
416,Leer,70.41,95,50,4.47,8.3,30.14
417,Okhotsk,63.03,82,100,6.76,59.38,143.3
418,Shimoda,69.01,95,100,1.99,34.67,138.95
419,Geraldton,44.6,93,0,3.36,-28.77,114.6
420,Iquitos,89.6,59,75,5.82,-3.75,-73.25
421,Trelew,46.72,55,0,9.24,-43.25,-65.31
422,Pathein,79.39,91,93,3.53,16.78,94.73
423,Marfino,70.27,68,100,6.71,55.7,37.38
424,Arrondissement de Bergerac,70.84,78,16,3.36,44.83,0.5
425,Luanda,71.6,83,40,12.75,-8.84,13.23
426,Qasigiannguit,46.4,70,75,9.17,68.82,-51.19
427,Guangyuan,71.01,81,100,1.01,32.44,105.82
428,Cap Malheureux,68.0,83,19,4.0,-19.98,57.61
429,Sabak,78.4,94,40,3.31,3.77,100.99
430,Katsuura,71.64,100,75,10.29,35.13,140.3
431,Esil,57.52,86,0,9.19,51.96,66.4
432,Inhambane,62.1,64,0,5.14,-23.86,35.38
433,Korba,80.4,82,100,3.78,22.35,82.68
434,Salta,55.4,28,0,6.93,-24.79,-65.41
435,Dwārka,84.87,77,86,17.96,22.24,68.97
436,Makkah al Mukarramah,83.41,59,1,2.17,21.43,39.83
437,Sibolga,73.83,80,100,5.5,1.74,98.78
438,Caesarea,80.85,74,0,2.24,32.52,34.9
439,Panacan,79.54,76,80,4.47,9.25,118.41
440,Charagua,58.6,39,43,10.51,-19.8,-63.22
441,Keuruu,60.87,100,40,4.7,62.27,24.7
442,Yambio,67.78,95,98,2.8,4.57,28.4
443,Husavik,50.0,71,75,12.75,66.04,-17.34
444,Port-Gentil,77.0,83,75,15.01,-0.72,8.78
445,Kitgum,66.54,89,99,2.04,3.28,32.89
446,Tual,78.42,82,95,23.24,-5.67,132.75
447,Kahului,78.87,54,40,20.8,20.89,-156.47
448,Riyadh,100.4,22,43,4.7,24.69,46.72
449,Indāpur,79.41,88,100,1.1,18.3,73.25
450,Havelock,85.23,82,100,8.05,34.88,-76.9
451,Tsévié,75.2,88,20,10.29,6.43,1.21
452,Vilhena,84.2,42,51,4.7,-12.74,-60.15
453,Teya,51.4,78,40,1.25,60.38,92.63
454,Požarevac,68.61,82,0,3.36,44.62,21.18
455,Belmonte,75.2,64,40,11.41,-15.86,-38.88
456,Waipawa,47.08,93,100,4.7,-41.41,175.52
457,Kuznetsk,58.77,86,0,2.55,53.12,46.6
458,Atambua,64.69,84,33,5.86,-9.11,124.89
459,Cidreira,50.68,72,100,10.4,-30.18,-50.21
460,Hanmer Springs,45.25,65,100,2.95,-42.52,172.82
461,Kīhei,78.57,54,40,20.8,20.79,-156.47
462,Ulaangom,54.81,79,0,2.04,49.98,92.07
463,Redmond,79.75,51,0,3.0,47.67,-122.12
464,Westport,89.37,52,75,12.75,41.14,-73.36
465,Khovd,56.66,71,0,0.56,48.01,91.64
466,Krasnoborsk,59.58,70,7,2.13,61.56,45.93
467,Karpinsk,52.25,75,89,2.77,59.77,60.01
468,Taitung City,81.16,72,84,5.23,22.76,121.14
469,Mizdah,72.57,57,0,14.09,31.45,12.98
470,Tangkak,78.4,83,20,5.82,2.27,102.55
471,Kutum,81.81,43,86,9.91,14.2,24.67
472,Bethanien,58.26,34,0,5.99,-26.5,17.16
473,Shizuishan,77.9,28,0,6.13,39.23,106.77
474,Portland,83.34,37,0,3.0,45.52,-122.68
475,Kupang,71.11,80,11,10.49,-10.17,123.58
476,Pechory,60.8,93,75,4.47,57.82,27.61
477,Bhag,100.67,35,0,10.16,29.04,67.82
478,Rovnoye,67.57,64,0,2.55,50.78,46.05
479,Bingöl,70.05,53,29,4.85,38.88,40.49
480,Tahara,80.01,87,100,3.0,34.67,137.27
481,Itacarambi,74.86,37,0,1.48,-15.1,-44.09
482,Raudeberg,60.21,87,40,6.93,61.99,5.14
483,Rosamorada,84.11,66,98,4.43,22.12,-105.21
484,Vryburg,47.46,52,0,7.09,-26.96,24.73
485,Sambava,73.63,89,100,13.2,-14.27,50.17
486,Hofn,51.31,81,100,7.52,64.25,-15.21
487,Zhezkazgan,66.31,51,0,11.45,47.8,67.71
488,Monte Azul,73.13,47,94,7.38,-15.15,-42.87
489,Murbād,83.05,100,75,5.82,19.25,73.4
490,San Ramon,84.02,28,1,8.05,37.78,-121.98
491,Kigorobya,67.57,86,63,2.28,1.62,31.31
492,Marsá Maţrūḩ,78.8,78,0,8.05,31.35,27.25
493,Yagodnoye,54.99,80,56,6.96,62.55,149.67
494,Lehututu,51.8,42,0,8.48,-23.97,21.87
495,Bay Roberts,62.91,57,56,6.42,47.6,-53.26
496,Mīnāb,93.2,75,0,4.7,27.15,57.08
497,Abu Samrah,85.98,35,0,8.95,35.3,37.18
498,Balgazyn,50.67,90,100,2.75,51.0,95.2
499,Krasnosel'kup,46.69,90,69,10.04,65.7,82.47
500,Umm Kaddadah,79.36,61,54,19.39,13.6,26.69
501,Sitka,60.8,77,75,5.82,57.05,-135.33
502,Hirara,84.76,79,0,18.39,24.8,125.28
503,Ixtapa,87.01,70,75,5.82,20.7,-105.2
504,Kidal,95.02,28,51,9.62,18.44,1.41
505,Baykit,53.6,87,47,3.09,61.67,96.37
506,Tombouctou,92.52,38,27,12.88,20.0,-3.0
507,La Ligua,60.8,59,0,6.93,-32.45,-71.23
508,San Juan,56.3,35,0,2.91,-31.54,-68.54
509,Nicoya,84.2,74,75,2.24,10.15,-85.45
510,Gonder,57.45,95,97,2.73,12.6,37.47
511,Constitución,53.47,64,0,7.61,-35.33,-72.42
512,Den Helder,62.26,63,75,18.34,52.96,4.76
513,Bellevue,77.92,56,1,8.05,47.61,-122.2
514,Nishihara,82.31,88,40,9.17,26.18,127.76
515,Shelburne,79.27,57,75,6.93,44.08,-80.2
516,Petatlán,86.0,74,90,3.36,17.52,-101.27
517,Kangaatsiaq,44.2,90,9,5.46,68.31,-53.46
518,New Ulm,81.41,57,40,10.29,44.31,-94.46
519,Araripe,73.74,39,0,5.46,-7.21,-40.05
520,Richards Bay,62.56,74,0,11.86,-28.78,32.04
521,Udine,74.35,77,33,1.99,46.06,13.24
522,Makakilo City,79.63,61,75,11.41,21.35,-158.09
523,Puerto Madryn,47.59,54,0,10.29,-42.77,-65.04
524,Vila Velha,76.06,78,20,13.87,-20.33,-40.29
525,Chifeng,68.97,76,98,5.08,42.27,118.96
526,Puerto Plata,88.32,62,20,9.17,19.79,-70.69
527,Palaia Fokaia,80.91,41,0,5.82,37.72,23.95
528,Barra de Tecoanapa,86.99,68,77,10.07,16.52,-98.75
529,Anadyr,53.26,81,75,15.66,64.75,177.48
530,Yar-Sale,46.18,79,89,9.13,66.83,70.83
531,Belaya Gora,46.15,75,100,10.65,68.53,146.42
532,Fussen,67.01,91,82,7.0,47.87,12.17
533,Nichinan,75.13,88,40,2.24,31.6,131.37
534,Fort Nelson,68.0,45,75,4.7,58.81,-122.7
535,Darhan,59.95,74,15,3.04,49.49,105.92
536,Jatai,78.06,35,2,4.05,-17.88,-51.71
537,Big Rapids,81.34,30,1,10.29,43.7,-85.48
538,Havøysund,68.0,56,100,10.29,71.0,24.66
539,Bealanana,61.86,92,99,2.91,-14.55,48.73
540,Hambantota,80.74,74,100,16.82,6.12,81.12
541,Río Gallegos,39.2,94,67,13.87,-51.62,-69.22
542,Shache,78.01,20,88,5.26,38.42,77.24
543,Bismarck,84.33,31,1,6.93,46.81,-100.78
544,Talnakh,51.8,71,100,11.18,69.49,88.4
545,Omboué,73.58,79,28,9.01,-1.57,9.26
546,Mauá,79.66,32,0,11.41,-23.67,-46.46
547,Lázaro Cárdenas,81.16,83,94,1.79,17.96,-102.2
548,Limbang,78.4,94,75,3.36,4.75,115.0
549,Harper,74.86,83,61,9.15,4.38,-7.72
550,Douglas,87.04,58,1,12.75,41.3,-96.17
551,Davydovo,62.6,88,10,4.47,55.61,38.86
552,Fairmont,84.38,57,12,7.56,39.49,-80.14
553,Kapit,72.97,94,100,0.56,2.02,112.93
554,Mt. Dora,80.51,83,20,11.41,28.8,-81.64
555,Sola,80.02,79,92,25.41,-13.88,167.55
556,Malanville,79.34,76,46,5.91,11.87,3.39
557,Tlaxco,71.6,53,75,6.93,19.62,-98.12
558,Qaqortoq,53.6,71,75,6.93,60.72,-46.03
559,Kapiri Mposhi,52.3,83,0,6.44,-13.97,28.68
560,Shabo,75.09,60,2,9.19,46.13,30.39
561,Inta,48.4,84,84,8.32,66.03,60.17
562,Santa Maria,53.6,54,20,6.93,-29.68,-53.81
